{"placemarks":[{"address":"Green P-51 Aberdeen Ave(2 CARS MAX)","coordinates":[-79.36878,43.66467,0],"engineType":"CE","exterior":"GOOD","fuel":100,"interior":"GOOD","name":"BPXL735","vin":"WMEEJ3BA0DK642093"},{"address":"Green P-265 Durie St(N of Bloor St W)","coordinates":[-79.47924,43.65122,0],"engineType":"CE","exterior":"GOOD","fuel":36,"interior":"GOOD","name":"BNYB281","vin":"WMEEJ3BAXCK574402"},{"address":"Green P-125 Burnaby Blvd(Castle Knock rd)","coordinates":[-79.41208,43.70444,0],"engineType":"CE","exterior":"GOOD","fuel":100,"interior":"GOOD","name":"BNYB282","vin":"WMEEJ3BAXCK574495"},{"address":"Green P-406 Oakwood Ave(S of Hanson Rd)","coordinates":[-79.43932,43.68807,0],"engineType":"CE","exterior":"GOOD","fuel":69,"interior":"GOOD","name":"BNYB283","vin":"WMEEJ3BAXCK575436"},{"address":"Green P-31 Blackthorne Ave(N of St Clair Ave W)","coordinates":[-79.45888,43.67527,0],"engineType":"CE","exterior":"GOOD","fuel":81,"interior":"GOOD","name":"BNYB284","vin":"WMEEJ3BAXCK576845"},{"address":"Green P-34 Hanna Ave(S of Liberty St)","coordinates":[-79.41991,43.63798,0],"engineType":"CE","exterior":"GOOD","fuel":78,"interior":"GOOD","name":"BNYB100","vin":"WMEEJ3BA0CK562856"},{"address":"Green P-709 Millwood Rd(E of Bayview)","coordinates":[-79.37405,43.70418,0],"engineType":"CE","exterior":"GOOD","fuel":75,"interior":"GOOD","name":"BNYB095","vin":"WMEEJ3BA1CK569542"},{"address":"Green P-1155 King St W(Liberty St-Lamport Stadium)","coordinates":[-79.42401,43.63786,0],"engineType":"CE","exterior":"GOOD","fuel":100,"interior":"GOOD","name":"BNYB376","vin":"WMEEJ3BA3CK569980"},{"address":"Green P-745 Ossington Ave(N of Bloor St)","coordinates":[-79.42565,43.66243,0],"engineType":"CE","exterior":"GOOD","fuel":54,"interior":"GOOD","name":"BNYB289","vin":"WMEEJ3BA9CK569367"},{"address":"Green P-265 Armadale Ave(N of Bloor St W)","coordinates":[-79.48304,43.65028,0],"engineType":"CE","exterior":"GOOD","fuel":57,"interior":"UNACCEPTABLE","name":"BNYB108","vin":"WMEEJ3BA0CK568785"},{"address":"TargetPark-525 Adelaide St W(E of Bathurst)","coordinates":[-79.40226,43.64527,0],"engineType":"CE","exterior":"GOOD","fuel":51,"interior":"GOOD","name":"BNYB215","vin":"WMEEJ3BA6CK568385"},{"address":"GreenP-1169 Weston RD (ALT entr off Locust)","coordinates":[-79.4903,43.68744,0],"engineType":"CE","exterior":"GOOD","fuel":100,"interior":"GOOD","name":"BNYB377","vin":"WMEEJ3BA3CK570045"},{"address":"Green P-1445 Bathurst St (South of St Clair W)","coordinates":[-79.41778,43.68274,0],"engineType":"CE","exterior":"GOOD","fuel":93,"interior":"GOOD","name":"BNYB296","vin":"WMEEJ3BA8CK574298"},{"address":"Green P-34 Hanna Ave(S of Liberty St)","coordinates":[-79.41991,43.63798,0],"engineType":"CE","exterior":"UNACCEPTABLE","fuel":45,"interior":"UNACCEPTABLE","name":"BNYB298","vin":"WMEEJ3BA8CK575015"},{"address":"Green P-1624 Queen St W(North Side of Queen St)","coordinates":[-79.44244,43.63953,0],"engineType":"CE","exterior":"GOOD","fuel":45,"interior":"GOOD","name":"BNYB299","vin":"WMEEJ3BA8CK575631"},{"address":"Green P-255 Kennedy Ave(Alt Entrance Glendonwynne)","coordinates":[-79.47481,43.65196,0],"engineType":"CE","exterior":"GOOD","fuel":93,"interior":"GOOD","name":"BNYB300","vin":"WMEEJ3BA8CK575662"},{"address":"Green P-376 Clinton St(N of Bloor St W)","coordinates":[-79.41758,43.66444,0],"engineType":"CE","exterior":"GOOD","fuel":42,"interior":"GOOD","name":"BNYB307","vin":"WMEEJ3BA8CK575936"},{"address":"Green P-2054 Dufferin St(S of Eversfield Rd)","coordinates":[-79.44681,43.68661,0],"engineType":"CE","exterior":"GOOD","fuel":33,"interior":"GOOD","name":"BNYB308","vin":"WMEEJ3BA9CK561947"},{"address":"Green P-803 Richmond St W(@Walnut/Stanley Terrace)","coordinates":[-79.41078,43.64455,0],"engineType":"CE","exterior":"GOOD","fuel":48,"interior":"GOOD","name":"BNYB310","vin":"WMEEJ3BA9CK562841"},{"address":"TargetPark-2345 Dundas St W(2 Spots, Dundas W Stn)","coordinates":[-79.45299,43.65668,0],"engineType":"CE","exterior":"GOOD","fuel":66,"interior":"GOOD","name":"BNYB312","vin":"WMEEJ3BA9CK568929"},{"address":"Green P-301 Scott Rd(S of Eglinton Ave)","coordinates":[-79.47238,43.69034,0],"engineType":"CE","exterior":"GOOD","fuel":100,"interior":"GOOD","name":"BNYB288","vin":"WMEEJ3BA9CK569269"},{"address":"Green P-9 Bedford Rd(Surface portion ONLY)","coordinates":[-79.39748,43.66866,0],"engineType":"CE","exterior":"GOOD","fuel":100,"interior":"GOOD","name":"BNYB291","vin":"WMEEJ3BA9CK573158"},{"address":"Green P-74 Clinton St (UNDERGROUND)","coordinates":[-79.41418,43.6557,0],"engineType":"CE","exterior":"GOOD","fuel":87,"interior":"GOOD","name":"BNYB292","vin":"WMEEJ3BA9CK573564"},{"address":"Green P-2201 Dundas St W(E of Roncesvalles Ave)","coordinates":[-79.45117,43.65337,0],"engineType":"CE","exterior":"GOOD","fuel":96,"interior":"GOOD","name":"BNYB257","vin":"WMEEJ3BA9CK574228"},{"address":"Targetpark-258 Logan Ave (Value Village)","coordinates":[-79.34243,43.66101,0],"engineType":"CE","exterior":"GOOD","fuel":57,"interior":"GOOD","name":"BNYB258","vin":"WMEEJ3BA9CK574360"},{"address":"Green P-433 Rogers Rd(W of Silverthorne)","coordinates":[-79.46398,43.68251,0],"engineType":"CE","exterior":"GOOD","fuel":100,"interior":"GOOD","name":"BNYB259","vin":"WMEEJ3BA9CK575296"},{"address":"Green P-18 Ossington Ave (N of Queen)","coordinates":[-79.41929,43.64466,0],"engineType":"CE","exterior":"GOOD","fuel":93,"interior":"GOOD","name":"BNYB265","vin":"WMEEJ3BA9CK575511"},{"address":"Green P-453 Spadina Rd(N of Lonsdale)","coordinates":[-79.41295,43.68954,0],"engineType":"CE","exterior":"GOOD","fuel":87,"interior":"GOOD","name":"BNYB267","vin":"WMEEJ3BA9CK575606"},{"address":"Green P-74 Clinton St (UNDERGROUND)","coordinates":[-79.41418,43.6557,0],"engineType":"CE","exterior":"GOOD","fuel":93,"interior":"GOOD","name":"BNYB287","vin":"WMEEJ3BAXCK562511"},{"address":"Green P-20 Charles St (Please Park on roof)","coordinates":[-79.38509,43.669,0],"engineType":"CE","exterior":"GOOD","fuel":78,"interior":"GOOD","name":"BNYB286","vin":"WMEEJ3BAXCK562671"},{"address":"Green P-1624 Queen St W(North Side of Queen St)","coordinates":[-79.44244,43.63953,0],"engineType":"CE","exterior":"GOOD","fuel":12,"interior":"GOOD","name":"BNYB285","vin":"WMEEJ3BAXCK563318"},{"address":"Green P-125 Burnaby Blvd(Castle Knock rd)","coordinates":[-79.41208,43.70444,0],"engineType":"CE","exterior":"GOOD","fuel":90,"interior":"GOOD","name":"BNYB268","vin":"WMEEJ3BAXCK563349"},{"address":"Green P-550 Mortimer Ave(W of Coxwell)","coordinates":[-79.3279,43.69043,0],"engineType":"CE","exterior":"GOOD","fuel":45,"interior":"GOOD","name":"BNYB269","vin":"WMEEJ3BAXCK567952"},{"address":"Green P-136 Broadview (off Thompson St)","coordinates":[-79.35038,43.6598,0],"engineType":"CE","exterior":"GOOD","fuel":24,"interior":"GOOD","name":"BNYB276","vin":"WMEEJ3BAXCK569507"},{"address":"Green P-15 Denison Ave(Entrance Denison/Augusta)","coordinates":[-79.40028,43.64853,0],"engineType":"CE","exterior":"GOOD","fuel":39,"interior":"GOOD","name":"BNYB277","vin":"WMEEJ3BAXCK570608"},{"address":"TargetPark-525 Adelaide St W(E of Bathurst)","coordinates":[-79.40226,43.64527,0],"engineType":"CE","exterior":"GOOD","fuel":100,"interior":"GOOD","name":"BNYB278","vin":"WMEEJ3BAXCK573217"},{"address":"Green P-385 Pacific Ave(S of Dundas| 2 entrances)","coordinates":[-79.4677,43.66495,0],"engineType":"CE","exterior":"GOOD","fuel":36,"interior":"GOOD","name":"BNYB369","vin":"WMEEJ3BA6CK573764"},{"address":"Green P-37 Queen St E(Parkade, Pls Prk Roof/ P6)","coordinates":[-79.37722,43.6527,0],"engineType":"CE","exterior":"GOOD","fuel":33,"interior":"GOOD","name":"BNYB302","vin":"WMEEJ3BA6CK575059"},{"address":"TargetPark-2345 Dundas St W(2 Spots, Dundas W Stn)","coordinates":[-79.45299,43.65668,0],"engineType":"CE","exterior":"GOOD","fuel":48,"interior":"GOOD","name":"BNYB304","vin":"WMEEJ3BA6CK575496"},{"address":"Green P-4 Spadina Rd(N of Bloor St W)","coordinates":[-79.40412,43.66688,0],"engineType":"CE","exterior":"GOOD","fuel":57,"interior":"GOOD","name":"BNYB305","vin":"WMEEJ3BA6CK575711"},{"address":"TargetPark-100 Wellesley St E (2 car max)","coordinates":[-79.37947,43.66627,0],"engineType":"CE","exterior":"GOOD","fuel":100,"interior":"GOOD","name":"BNYB306","vin":"WMEEJ3BA6CK575756"},{"address":"Green P-40 York St (Underground, 2 entrances)","coordinates":[-79.38339,43.6453,0],"engineType":"CE","exterior":"GOOD","fuel":75,"interior":"GOOD","name":"BNYB158","vin":"WMEEJ3BA7CK562823"},{"address":"Green P-1117 Dundas St W (Behind CIBC bank)","coordinates":[-79.42014,43.64927,0],"engineType":"CE","exterior":"GOOD","fuel":100,"interior":"GOOD","name":"BNYB159","vin":"WMEEJ3BA7CK563048"},{"address":"Green P-1A Church St(Entrance South Market St)","coordinates":[-79.37149,43.64783,0],"engineType":"CE","exterior":"GOOD","fuel":48,"interior":"GOOD","name":"BNYB160","vin":"WMEEJ3BA7CK563602"},{"address":"Green P-1155 King St W(Liberty St-Lamport Stadium)","coordinates":[-79.42401,43.63786,0],"engineType":"CE","exterior":"GOOD","fuel":75,"interior":"GOOD","name":"BNYB162","vin":"WMEEJ3BA7CK568265"},{"address":"Green P-1503 Bayview Ave (South of Millwood Rd)","coordinates":[-79.37411,43.7039,0],"engineType":"CE","exterior":"GOOD","fuel":39,"interior":"GOOD","name":"BNYB164","vin":"WMEEJ3BA7CK568878"},{"address":"Nunavut Rd, M6K Toronto","coordinates":[-79.41628,43.63446,0],"engineType":"CE","exterior":"GOOD","fuel":100,"interior":"GOOD","name":"BNYB166","vin":"WMEEJ3BA7CK569562"},{"address":"Green P-341 Oakwood Ave(enter at Holland Park Ave)","coordinates":[-79.43819,43.68648,0],"engineType":"CE","exterior":"GOOD","fuel":69,"interior":"GOOD","name":"BNYB167","vin":"WMEEJ3BA7CK569612"},{"address":"Green P-251 MacPherson (W of Avenue Rd)","coordinates":[-79.40008,43.67743,0],"engineType":"CE","exterior":"GOOD","fuel":100,"interior":"GOOD","name":"BNYB169","vin":"WMEEJ3BA7CK569660"},{"address":"TargetPark-2345 Dundas St W(2 Spots, Dundas W Stn)","coordinates":[-79.45299,43.65668,0],"engineType":"CE","exterior":"GOOD","fuel":69,"interior":"GOOD","name":"BNYB152","vin":"WMEEJ3BA7CK569707"},{"address":"Green P-365 Lippinccott Ave(South of Bloor St W)","coordinates":[-79.40966,43.66505,0],"engineType":"CE","exterior":"GOOD","fuel":90,"interior":"GOOD","name":"BNYB153","vin":"WMEEJ3BA7CK570095"},{"address":"Green P-34 Hanna Ave(S of Liberty St)","coordinates":[-79.41991,43.63798,0],"engineType":"CE","exterior":"GOOD","fuel":100,"interior":"GOOD","name":"BNYB154","vin":"WMEEJ3BA7CK570100"},{"address":"Green P-709 Millwood Rd(E of Bayview)","coordinates":[-79.37405,43.70418,0],"engineType":"CE","exterior":"GOOD","fuel":100,"interior":"GOOD","name":"BNYB156","vin":"WMEEJ3BA7CK570307"},{"address":"Green P-745 Ossington Ave(N of Bloor St)","coordinates":[-79.42565,43.66243,0],"engineType":"CE","exterior":"GOOD","fuel":57,"interior":"GOOD","name":"BNYB151","vin":"WMEEJ3BA7CK570615"},{"address":"Green P-709 Millwood Rd(E of Bayview)","coordinates":[-79.37405,43.70418,0],"engineType":"CE","exterior":"GOOD","fuel":100,"interior":"GOOD","name":"BNYB155","vin":"WMEEJ3BA7CK573062"},{"address":"TargetPark-2345 Dundas St W(2 Spots, Dundas W Stn)","coordinates":[-79.45299,43.65668,0],"engineType":"CE","exterior":"GOOD","fuel":42,"interior":"GOOD","name":"BNYB157","vin":"WMEEJ3BA7CK573224"},{"address":"TargetPark-141 Davisville Ave( Spots, E of Young)","coordinates":[-79.39145,43.69903,0],"engineType":"CE","exterior":"GOOD","fuel":75,"interior":"GOOD","name":"BNYB339","vin":"WMEEJ3BA7CK573255"},{"address":"Green P-550 Mortimer Ave(W of Coxwell)","coordinates":[-79.3279,43.69043,0],"engineType":"CE","exterior":"GOOD","fuel":66,"interior":"GOOD","name":"BNYB338","vin":"WMEEJ3BA7CK573336"},{"address":"Green P-101 Cedarvale Ave(North of Danforth)","coordinates":[-79.31115,43.68681,0],"engineType":"CE","exterior":"GOOD","fuel":100,"interior":"GOOD","name":"BNYB337","vin":"WMEEJ3BA7CK573403"},{"address":"Green P-351 Keele Street(South of Dundas)","coordinates":[-79.46368,43.66481,0],"engineType":"CE","exterior":"GOOD","fuel":57,"interior":"GOOD","name":"BNYB336","vin":"WMEEJ3BA7CK573546"},{"address":"Green P-803 Richmond St W(@Walnut/Stanley Terrace)","coordinates":[-79.41078,43.64455,0],"engineType":"CE","exterior":"GOOD","fuel":78,"interior":"GOOD","name":"BNYB333","vin":"WMEEJ3BA7CK574311"},{"address":"Green P-110 Dovercourt Rd (Alley behind Starbucks)","coordinates":[-79.42276,43.64384,0],"engineType":"CE","exterior":"GOOD","fuel":81,"interior":"GOOD","name":"BNYB332","vin":"WMEEJ3BA7CK574616"},{"address":"TargetPark-525 Adelaide St W(E of Bathurst)","coordinates":[-79.40226,43.64527,0],"engineType":"CE","exterior":"GOOD","fuel":42,"interior":"UNACCEPTABLE","name":"BNYB325","vin":"WMEEJ3BA7CK574857"},{"address":"Green P-31 Blackthorne Ave(N of St Clair Ave W)","coordinates":[-79.45888,43.67527,0],"engineType":"CE","exterior":"GOOD","fuel":93,"interior":"GOOD","name":"BNYB326","vin":"WMEEJ3BA7CK575264"},{"address":"Green P-2201 Dundas St W(E of Roncesvalles Ave)","coordinates":[-79.45117,43.65337,0],"engineType":"CE","exterior":"GOOD","fuel":100,"interior":"GOOD","name":"BNYB327","vin":"WMEEJ3BA8CK562409"},{"address":"Green P-91 Via Italia (Park on ROOF)","coordinates":[-79.44503,43.67689,0],"engineType":"CE","exterior":"GOOD","fuel":100,"interior":"GOOD","name":"BNYB316","vin":"WMEEJ3BA8CK562765"},{"address":"Mercedes-Benz Midtown (1 spot in back, 1 car only)","coordinates":[-79.36086,43.71258,0],"engineType":"CE","exterior":"UNACCEPTABLE","fuel":63,"interior":"GOOD","name":"BNYB351","vin":"WMEEJ3BA8CK564046"},{"address":"Green P-745 Ossington Ave(N of Bloor St)","coordinates":[-79.42565,43.66243,0],"engineType":"CE","exterior":"GOOD","fuel":51,"interior":"GOOD","name":"BNYB352","vin":"WMEEJ3BA8CK567609"},{"address":"Green P-197 Blantyre Ave(Alt Ent. Fallingbrook)","coordinates":[-79.2815,43.68177,0],"engineType":"CE","exterior":"GOOD","fuel":33,"interior":"GOOD","name":"BNYB353","vin":"WMEEJ3BA8CK568341"},{"address":"Green P-573 Gerrard St E(West of Broadview)","coordinates":[-79.35316,43.6652,0],"engineType":"CE","exterior":"GOOD","fuel":36,"interior":"GOOD","name":"BNYB354","vin":"WMEEJ3BA8CK569361"},{"address":"Green P-20 Charles St (Please Park on roof)","coordinates":[-79.38509,43.669,0],"engineType":"CE","exterior":"GOOD","fuel":93,"interior":"GOOD","name":"BNYB356","vin":"WMEEJ3BA8CK569764"},{"address":"Green P-302 Queen St W (W of Soho St)","coordinates":[-79.3939,43.64967,0],"engineType":"CE","exterior":"GOOD","fuel":27,"interior":"GOOD","name":"BNYB358","vin":"WMEEJ3BA8CK569957"},{"address":"Green P-745 Ossington Ave(N of Bloor St)","coordinates":[-79.42565,43.66243,0],"engineType":"CE","exterior":"GOOD","fuel":45,"interior":"GOOD","name":"BNYB251","vin":"WMEEJ3BA8CK570512"},{"address":"Green P-91 Via Italia (Park on ROOF)","coordinates":[-79.44503,43.67689,0],"engineType":"CE","exterior":"GOOD","fuel":96,"interior":"GOOD","name":"BNYB252","vin":"WMEEJ3BA8CK570784"},{"address":"Nunavut Rd, M6K Toronto","coordinates":[-79.41628,43.63444,0],"engineType":"CE","exterior":"GOOD","fuel":36,"interior":"GOOD","name":"BNYB253","vin":"WMEEJ3BA8CK570803"},{"address":"Green P-4 Spadina Rd(N of Bloor St W)","coordinates":[-79.40412,43.66688,0],"engineType":"CE","exterior":"GOOD","fuel":48,"interior":"GOOD","name":"BNYB254","vin":"WMEEJ3BA8CK572972"},{"address":"Green P-323 Richmond St E(2 spots FLR 1 & bottom)","coordinates":[-79.36866,43.65315,0],"engineType":"CE","exterior":"GOOD","fuel":100,"interior":"GOOD","name":"BNYB255","vin":"WMEEJ3BA8CK573247"},{"address":"Green P-9 Bedford Rd(Surface portion ONLY)","coordinates":[-79.39748,43.66866,0],"engineType":"CE","exterior":"GOOD","fuel":39,"interior":"GOOD","name":"BNYB256","vin":"WMEEJ3BA8CK573278"},{"address":"Ashbridges Bay Park Rd, M4L Toronto","coordinates":[-79.31092,43.65986,0],"engineType":"CE","exterior":"GOOD","fuel":69,"interior":"GOOD","name":"BNYB293","vin":"WMEEJ3BA8CK573314"},{"address":"Green P-265 Armadale Ave(N of Bloor St W)","coordinates":[-79.48304,43.65028,0],"engineType":"CE","exterior":"UNACCEPTABLE","fuel":54,"interior":"UNACCEPTABLE","name":"BNYB294","vin":"WMEEJ3BA8CK573863"},{"address":"Green P-3354 Dundas St W(East of Runnymede Rd)","coordinates":[-79.4819,43.66567,0],"engineType":"CE","exterior":"GOOD","fuel":87,"interior":"GOOD","name":"BNYB295","vin":"WMEEJ3BA8CK574088"},{"address":"Green P-9 Salem Ave(N of Bloor St)","coordinates":[-79.43167,43.66101,0],"engineType":"CE","exterior":"GOOD","fuel":100,"interior":"GOOD","name":"BNYB324","vin":"WMEEJ3BA3CK574869"},{"address":"Green P-34 Hanna Ave(S of Liberty St)","coordinates":[-79.41991,43.63798,0],"engineType":"CE","exterior":"GOOD","fuel":18,"interior":"GOOD","name":"BNYB340","vin":"WMEEJ3BA3CK575312"},{"address":"Green P-25 Dundas St E(Enter Victoria, prk bottom)","coordinates":[-79.37993,43.656,0],"engineType":"CE","exterior":"GOOD","fuel":54,"interior":"GOOD","name":"BNYB341","vin":"WMEEJ3BA4CK562553"},{"address":"GreenP- 730 Mt Pleasant Rd (Underground)","coordinates":[-79.38975,43.7067,0],"engineType":"CE","exterior":"GOOD","fuel":48,"interior":"GOOD","name":"BNYB342","vin":"WMEEJ3BA4CK562617"},{"address":"Green P-14 Arundel Ave(N of Danforth)","coordinates":[-79.35122,43.67846,0],"engineType":"CE","exterior":"GOOD","fuel":27,"interior":"GOOD","name":"BNYB343","vin":"WMEEJ3BA4CK562634"},{"address":"Green P-197 Blantyre Ave(Alt Ent. Fallingbrook)","coordinates":[-79.2815,43.68177,0],"engineType":"CE","exterior":"GOOD","fuel":100,"interior":"GOOD","name":"BNYB345","vin":"WMEEJ3BA4CK563265"},{"address":"Green P-803 Richmond St W(@Walnut/Stanley Terrace)","coordinates":[-79.41078,43.64455,0],"engineType":"CE","exterior":"GOOD","fuel":81,"interior":"GOOD","name":"BNYB170","vin":"WMEEJ3BA4CK568689"},{"address":"Green P-125 Burnaby Blvd(Castle Knock rd)","coordinates":[-79.41208,43.70444,0],"engineType":"CE","exterior":"GOOD","fuel":39,"interior":"GOOD","name":"BNYB171","vin":"WMEEJ3BA4CK569003"},{"address":"TargetPark-141 Davisville Ave( Spots, E of Young)","coordinates":[-79.39145,43.69903,0],"engineType":"CE","exterior":"GOOD","fuel":42,"interior":"GOOD","name":"BNYB172","vin":"WMEEJ3BA4CK569597"},{"address":"Green P-376 Clinton St(N of Bloor St W)","coordinates":[-79.41758,43.66444,0],"engineType":"CE","exterior":"GOOD","fuel":60,"interior":"UNACCEPTABLE","name":"BNYB173","vin":"WMEEJ3BA4CK569776"},{"address":"Green P-406 Oakwood Ave(S of Hanson Rd)","coordinates":[-79.43932,43.68807,0],"engineType":"CE","exterior":"GOOD","fuel":100,"interior":"GOOD","name":"BNYB174","vin":"WMEEJ3BA4CK570040"},{"address":"Green P-251 MacPherson (W of Avenue Rd)","coordinates":[-79.40008,43.67743,0],"engineType":"CE","exterior":"GOOD","fuel":24,"interior":"GOOD","name":"BNYB175","vin":"WMEEJ3BA4CK570569"},{"address":"Green P-333 Eglinton Ave W(Entrance on Braemar )","coordinates":[-79.409,43.70415,0],"engineType":"CE","exterior":"GOOD","fuel":100,"interior":"GOOD","name":"BNYB176","vin":"WMEEJ3BA4CK570751"},{"address":"Green P-4 Spadina Rd(N of Bloor St W)","coordinates":[-79.40412,43.66688,0],"engineType":"CE","exterior":"GOOD","fuel":72,"interior":"GOOD","name":"BNYB318","vin":"WMEEJ3BA4CK570829"},{"address":"Green P-406 Oakwood Ave(S of Hanson Rd)","coordinates":[-79.43932,43.68807,0],"engineType":"CE","exterior":"GOOD","fuel":100,"interior":"GOOD","name":"BNYB319","vin":"WMEEJ3BA4CK574069"},{"address":"TargetPark-525 Adelaide St W(E of Bathurst)","coordinates":[-79.40226,43.64527,0],"engineType":"CE","exterior":"GOOD","fuel":54,"interior":"GOOD","name":"BNYB320","vin":"WMEEJ3BA4CK574332"},{"address":"College St 627, M6G Toronto","coordinates":[-79.41496,43.65476,0],"engineType":"CE","exterior":"GOOD","fuel":100,"interior":"GOOD","name":"BNYB321","vin":"WMEEJ3BA4CK574590"},{"address":"Green P-1 Shortt St (Off Eglinton, W of Dufferin)","coordinates":[-79.4518,43.69595,0],"engineType":"CE","exterior":"GOOD","fuel":100,"interior":"GOOD","name":"BNYB328","vin":"WMEEJ3BA4CK574802"},{"address":"Green P-2053 Dufferin St(N of Rogers Rd)","coordinates":[-79.44638,43.6866,0],"engineType":"CE","exterior":"GOOD","fuel":51,"interior":"GOOD","name":"BNYB329","vin":"WMEEJ3BA4CK574931"},{"address":"Green P-197 Blantyre Ave(Alt Ent. Fallingbrook)","coordinates":[-79.2815,43.68177,0],"engineType":"CE","exterior":"GOOD","fuel":75,"interior":"GOOD","name":"BNYB331","vin":"WMEEJ3BA5CK562495"},{"address":"GreenP- 730 Mt Pleasant Rd (Underground)","coordinates":[-79.38975,43.7067,0],"engineType":"CE","exterior":"GOOD","fuel":96,"interior":"GOOD","name":"BNYB194","vin":"WMEEJ3BA5CK562657"},{"address":"Green P-15 Price St( E of Yonge)","coordinates":[-79.39001,43.67981,0],"engineType":"CE","exterior":"GOOD","fuel":48,"interior":"GOOD","name":"BNYB195","vin":"WMEEJ3BA5CK562707"},{"address":"Green P-125 Burnaby Blvd(Castle Knock rd)","coordinates":[-79.41208,43.70444,0],"engineType":"CE","exterior":"GOOD","fuel":100,"interior":"GOOD","name":"BNYB196","vin":"WMEEJ3BA5CK562934"},{"address":"Green P-14 Fuller Ave (N of Queen St W)","coordinates":[-79.43954,43.64079,0],"engineType":"CE","exterior":"GOOD","fuel":63,"interior":"GOOD","name":"BNYB197","vin":"WMEEJ3BA5CK563386"},{"address":"Green P-20 Charles St (Please Park on roof)","coordinates":[-79.38509,43.669,0],"engineType":"CE","exterior":"GOOD","fuel":78,"interior":"GOOD","name":"BNYB198","vin":"WMEEJ3BA5CK568796"},{"address":"Green P-10 York St(S of Bremmer)","coordinates":[-79.381,43.64113,0],"engineType":"CE","exterior":"GOOD","fuel":45,"interior":"GOOD","name":"BNYB199","vin":"WMEEJ3BA5CK569530"},{"address":"TargetPark-100 Wellesley St E (2 car max)","coordinates":[-79.37947,43.66627,0],"engineType":"CE","exterior":"GOOD","fuel":100,"interior":"GOOD","name":"BNYB200","vin":"WMEEJ3BA5CK570127"},{"address":"Net Dr, M6K Toronto","coordinates":[-79.43826,43.63306,0],"engineType":"CE","exterior":"GOOD","fuel":100,"interior":"GOOD","name":"BNYB203","vin":"WMEEJ3BA5CK570208"},{"address":"High Park Ave 33, M6P Toronto","coordinates":[-79.46569,43.65467,0],"engineType":"CE","exterior":"GOOD","fuel":78,"interior":"GOOD","name":"BNYB204","vin":"WMEEJ3BA5CK573139"},{"address":"Nunavut Rd, M6K Toronto","coordinates":[-79.41625,43.63446,0],"engineType":"CE","exterior":"GOOD","fuel":60,"interior":"GOOD","name":"BNYB205","vin":"WMEEJ3BA5CK573271"},{"address":"GreenP- 730 Mt Pleasant Rd (Underground)","coordinates":[-79.38975,43.7067,0],"engineType":"CE","exterior":"GOOD","fuel":33,"interior":"GOOD","name":"BNYB206","vin":"WMEEJ3BA5CK573299"},{"address":"Green P-34 Hanna Ave(S of Liberty St)","coordinates":[-79.41991,43.63798,0],"engineType":"CE","exterior":"GOOD","fuel":93,"interior":"GOOD","name":"BNYB207","vin":"WMEEJ3BA5CK573478"},{"address":"TargetPark-525 Adelaide St W(E of Bathurst)","coordinates":[-79.40226,43.64527,0],"engineType":"CE","exterior":"UNACCEPTABLE","fuel":81,"interior":"GOOD","name":"BNYB208","vin":"WMEEJ3BA5CK574047"},{"address":"Green P-40 York St (Underground, 2 entrances)","coordinates":[-79.38339,43.6453,0],"engineType":"CE","exterior":"GOOD","fuel":66,"interior":"GOOD","name":"BNYB209","vin":"WMEEJ3BA5CK574923"},{"address":"Green P-34 Hanna Ave(S of Liberty St)","coordinates":[-79.41991,43.63798,0],"engineType":"CE","exterior":"GOOD","fuel":42,"interior":"UNACCEPTABLE","name":"BNYB210","vin":"WMEEJ3BA5CK575327"},{"address":"Green P-351 Keele Street(South of Dundas)","coordinates":[-79.46368,43.66481,0],"engineType":"CE","exterior":"GOOD","fuel":33,"interior":"GOOD","name":"BNYB211","vin":"WMEEJ3BA6CK562540"},{"address":"Green P-75 Holly St (Park highest floor possible)","coordinates":[-79.39635,43.70647,0],"engineType":"CE","exterior":"GOOD","fuel":63,"interior":"GOOD","name":"BNYB212","vin":"WMEEJ3BA6CK563896"},{"address":"TargetPark-141 Davisville Ave( Spots, E of Young)","coordinates":[-79.39145,43.69903,0],"engineType":"CE","exterior":"GOOD","fuel":100,"interior":"GOOD","name":"BNYB213","vin":"WMEEJ3BA6CK564031"},{"address":"Green P-16 Riverview Gardens(N of Bloor St)","coordinates":[-79.48666,43.64889,0],"engineType":"CE","exterior":"GOOD","fuel":48,"interior":"UNACCEPTABLE","name":"BNYB214","vin":"WMEEJ3BA6CK568208"},{"address":"Green P-1 Shortt St (Off Eglinton, W of Dufferin)","coordinates":[-79.4518,43.69595,0],"engineType":"CE","exterior":"GOOD","fuel":54,"interior":"GOOD","name":"BNYB216","vin":"WMEEJ3BA6CK569326"},{"address":"Green P-1155 King St W(Liberty St-Lamport Stadium)","coordinates":[-79.42401,43.63786,0],"engineType":"CE","exterior":"GOOD","fuel":81,"interior":"GOOD","name":"BNYB219","vin":"WMEEJ3BA6CK569536"},{"address":"Green P-745 Ossington Ave(N of Bloor St)","coordinates":[-79.42565,43.66243,0],"engineType":"CE","exterior":"GOOD","fuel":100,"interior":"GOOD","name":"BNYB218","vin":"WMEEJ3BA6CK569701"},{"address":"Green P-1695 Dufferin St(Entrance on Westmount)","coordinates":[-79.44236,43.67864,0],"engineType":"CE","exterior":"GOOD","fuel":33,"interior":"GOOD","name":"BNYB217","vin":"WMEEJ3BA6CK569729"},{"address":"Cosburn Ave 126, M4J Toronto","coordinates":[-79.34709,43.68984,0],"engineType":"CE","exterior":"GOOD","fuel":63,"interior":"GOOD","name":"BNYB346","vin":"WMEEJ3BA6CK570220"},{"address":"Green P-385 Pacific Ave(S of Dundas| 2 entrances)","coordinates":[-79.4677,43.66495,0],"engineType":"CE","exterior":"GOOD","fuel":21,"interior":"GOOD","name":"BNYB347","vin":"WMEEJ3BA6CK570394"},{"address":"Green P-1155 King St W(Liberty St-Lamport Stadium)","coordinates":[-79.42401,43.63786,0],"engineType":"CE","exterior":"GOOD","fuel":100,"interior":"GOOD","name":"BNYB348","vin":"WMEEJ3BA6CK570735"},{"address":"Green P-1155 King St W(Liberty St-Lamport Stadium)","coordinates":[-79.42401,43.63786,0],"engineType":"CE","exterior":"GOOD","fuel":51,"interior":"GOOD","name":"BNYB317","vin":"WMEEJ3BA6CK572825"},{"address":"Princes' Blvd 113, M6K Toronto","coordinates":[-79.41338,43.6334,0],"engineType":"CE","exterior":"GOOD","fuel":100,"interior":"GOOD","name":"BNYB349","vin":"WMEEJ3BA6CK573103"},{"address":"TargetPark-525 Adelaide St W(E of Bathurst)","coordinates":[-79.40226,43.64527,0],"engineType":"CE","exterior":"GOOD","fuel":33,"interior":"GOOD","name":"BNYB357","vin":"WMEEJ3BA6CK573540"},{"address":"Green P-2053 Dufferin St(N of Rogers Rd)","coordinates":[-79.44638,43.6866,0],"engineType":"CE","exterior":"GOOD","fuel":100,"interior":"GOOD","name":"BNYB188","vin":"WMEEJ3BA2CK562311"},{"address":"GreenP-1169 Weston RD (ALT entr off Locust)","coordinates":[-79.4903,43.68744,0],"engineType":"CE","exterior":"GOOD","fuel":100,"interior":"GOOD","name":"BNYB072","vin":"WMEEJ3BA2CK562812"},{"address":"Green P-653 Gerrard St E(W of Boulton Ave)","coordinates":[-79.3502,43.66578,0],"engineType":"CE","exterior":"GOOD","fuel":63,"interior":"GOOD","name":"BNYB071","vin":"WMEEJ3BA2CK563054"},{"address":"Green P-20 Charles St (Please Park on roof)","coordinates":[-79.38509,43.669,0],"engineType":"CE","exterior":"GOOD","fuel":27,"interior":"GOOD","name":"BNYB070","vin":"WMEEJ3BA2CK563183"},{"address":"TargetPark-2345 Dundas St W(2 Spots, Dundas W Stn)","coordinates":[-79.45299,43.65668,0],"engineType":"CE","exterior":"GOOD","fuel":90,"interior":"GOOD","name":"BNYB069","vin":"WMEEJ3BA2CK567704"},{"address":"Green P-709 Millwood Rd(E of Bayview)","coordinates":[-79.37405,43.70418,0],"engineType":"CE","exterior":"GOOD","fuel":100,"interior":"GOOD","name":"BNYB067","vin":"WMEEJ3BA2CK569307"},{"address":"TTC Commuter lot- 139 Indian Grove (4 Cars only)","coordinates":[-79.45712,43.6558,0],"engineType":"CE","exterior":"GOOD","fuel":100,"interior":"GOOD","name":"BNYB066","vin":"WMEEJ3BA2CK570084"},{"address":"Green P-1155 King St W(Liberty St-Lamport Stadium)","coordinates":[-79.42401,43.63786,0],"engineType":"CE","exterior":"GOOD","fuel":33,"interior":"GOOD","name":"BNYB065","vin":"WMEEJ3BA2CK570361"},{"address":"Green P-709 Millwood Rd(E of Bayview)","coordinates":[-79.37405,43.70418,0],"engineType":"CE","exterior":"UNACCEPTABLE","fuel":36,"interior":"UNACCEPTABLE","name":"BNYB064","vin":"WMEEJ3BA2CK570621"},{"address":"Green P-34 Hanna Ave(S of Liberty St)","coordinates":[-79.41991,43.63798,0],"engineType":"CE","exterior":"GOOD","fuel":96,"interior":"GOOD","name":"BNYB063","vin":"WMEEJ3BA2CK572692"},{"address":"GreenP-1169 Weston RD (ALT entr off Locust)","coordinates":[-79.4903,43.68744,0],"engineType":"CE","exterior":"GOOD","fuel":63,"interior":"GOOD","name":"BNYB061","vin":"WMEEJ3BA2CK573034"},{"address":"Mould Ave 9, M6N Toronto","coordinates":[-79.48701,43.66849,0],"engineType":"CE","exterior":"GOOD","fuel":87,"interior":"GOOD","name":"BNYB059","vin":"WMEEJ3BA2CK573485"},{"address":"Green P-15 Wellesley St. E.(East of Yonge)","coordinates":[-79.38359,43.66484,0],"engineType":"CE","exterior":"GOOD","fuel":48,"interior":"GOOD","name":"BNYB057","vin":"WMEEJ3BA2CK574006"},{"address":"Green P-20 Charles St (Please Park on roof)","coordinates":[-79.38509,43.669,0],"engineType":"CE","exterior":"GOOD","fuel":100,"interior":"GOOD","name":"BNYB056","vin":"WMEEJ3BA2CK574748"},{"address":"Green P-433 Rogers Rd(W of Silverthorne)","coordinates":[-79.46398,43.68251,0],"engineType":"CE","exterior":"GOOD","fuel":100,"interior":"GOOD","name":"BNYB055","vin":"WMEEJ3BA2CK574796"},{"address":"Green P-15 Denison Ave(Entrance Denison/Augusta)","coordinates":[-79.40028,43.64853,0],"engineType":"CE","exterior":"GOOD","fuel":69,"interior":"GOOD","name":"BNYB054","vin":"WMEEJ3BA2CK575558"},{"address":"Green P-11 Kenwood Ave(N side of St Clair Ave W)","coordinates":[-79.42186,43.683,0],"engineType":"CE","exterior":"GOOD","fuel":60,"interior":"GOOD","name":"BNYB053","vin":"WMEEJ3BA3CK562155"},{"address":"Green P-2054 Dufferin St(S of Eversfield Rd)","coordinates":[-79.44681,43.68661,0],"engineType":"CE","exterior":"GOOD","fuel":100,"interior":"GOOD","name":"BNYB050","vin":"WMEEJ3BA3CK562589"},{"address":"Green P-912 Eglinton Ave W(West of Bathurst)","coordinates":[-79.42793,43.70071,0],"engineType":"CE","exterior":"GOOD","fuel":72,"interior":"GOOD","name":"BNYB049","vin":"WMEEJ3BA3CK562611"},{"address":"Green P-803 Richmond St W(@Walnut/Stanley Terrace)","coordinates":[-79.41078,43.64455,0],"engineType":"CE","exterior":"GOOD","fuel":96,"interior":"GOOD","name":"BNYB177","vin":"WMEEJ3BA3CK562818"},{"address":"Green P-111 Broadview Ave(N of Queen St E)","coordinates":[-79.34977,43.65918,0],"engineType":"CE","exterior":"GOOD","fuel":87,"interior":"GOOD","name":"BNYB178","vin":"WMEEJ3BA3CK562835"},{"address":"TargetPark-1321 Bay St(2spot Enter from Davenport)","coordinates":[-79.39041,43.67252,0],"engineType":"CE","exterior":"GOOD","fuel":100,"interior":"GOOD","name":"BNYB179","vin":"WMEEJ3BA3CK562866"},{"address":"Green P-9 Salem Ave(N of Bloor St)","coordinates":[-79.43167,43.66101,0],"engineType":"CE","exterior":"GOOD","fuel":100,"interior":"GOOD","name":"BNYB180","vin":"WMEEJ3BA3CK562883"},{"address":"Green P-1445 Bathurst St (South of St Clair W)","coordinates":[-79.41778,43.68274,0],"engineType":"CE","exterior":"GOOD","fuel":93,"interior":"GOOD","name":"BNYB182","vin":"WMEEJ3BA3CK563273"},{"address":"Green P-376 Clinton St(N of Bloor St W)","coordinates":[-79.41758,43.66444,0],"engineType":"CE","exterior":"GOOD","fuel":39,"interior":"GOOD","name":"BNYB183","vin":"WMEEJ3BA3CK563306"},{"address":"UofT-42 Harbord St (In back, 2 cars per space)","coordinates":[-79.40103,43.66373,0],"engineType":"CE","exterior":"GOOD","fuel":24,"interior":"GOOD","name":"BNYB184","vin":"WMEEJ3BA3CK568330"},{"address":"Targetpark-258 Logan Ave (Value Village)","coordinates":[-79.34243,43.66101,0],"engineType":"CE","exterior":"GOOD","fuel":90,"interior":"GOOD","name":"BNYB185","vin":"WMEEJ3BA3CK568960"},{"address":"TargetPark-525 Adelaide St W(E of Bathurst)","coordinates":[-79.40226,43.64527,0],"engineType":"CE","exterior":"GOOD","fuel":66,"interior":"GOOD","name":"BNYB370","vin":"WMEEJ3BA3CK568991"},{"address":"Green P-125 Burnaby Blvd(Castle Knock rd)","coordinates":[-79.41208,43.70444,0],"engineType":"CE","exterior":"GOOD","fuel":100,"interior":"GOOD","name":"BNYB371","vin":"WMEEJ3BA3CK569235"},{"address":"Green P-1445 Bathurst St (South of St Clair W)","coordinates":[-79.41778,43.68274,0],"engineType":"CE","exterior":"GOOD","fuel":57,"interior":"GOOD","name":"BNYB373","vin":"WMEEJ3BA3CK569770"},{"address":"Mercedes Benz Downtown (4 Spaces at front)","coordinates":[-79.35673,43.66143,0],"engineType":"CE","exterior":"GOOD","fuel":45,"interior":"GOOD","name":"BNYB375","vin":"WMEEJ3BA3CK569946"},{"address":"Green P-34 Hanna Ave(S of Liberty St)","coordinates":[-79.41991,43.63798,0],"engineType":"CE","exterior":"GOOD","fuel":72,"interior":"GOOD","name":"BNYB364","vin":"WMEEJ3BA3CK570546"},{"address":"Green P-803 Richmond St W(@Walnut/Stanley Terrace)","coordinates":[-79.41078,43.64455,0],"engineType":"CE","exterior":"GOOD","fuel":48,"interior":"GOOD","name":"BNYB365","vin":"WMEEJ3BA3CK570627"},{"address":"Green P-301 Scott Rd(S of Eglinton Ave)","coordinates":[-79.47238,43.69034,0],"engineType":"CE","exterior":"GOOD","fuel":100,"interior":"GOOD","name":"BNYB367","vin":"WMEEJ3BA3CK572913"},{"address":"Green P-7 Norton Ave(W of Dufferin| N of St Clair)","coordinates":[-79.44388,43.67836,0],"engineType":"CE","exterior":"GOOD","fuel":63,"interior":"GOOD","name":"BNYB368","vin":"WMEEJ3BA3CK573009"},{"address":"Green P-15 Wellesley St. E.(East of Yonge)","coordinates":[-79.38359,43.66484,0],"engineType":"CE","exterior":"GOOD","fuel":100,"interior":"GOOD","name":"BNYB380","vin":"WMEEJ3BA3CK573057"},{"address":"TargetPark-2345 Dundas St W(2 Spots, Dundas W Stn)","coordinates":[-79.45299,43.65668,0],"engineType":"CE","exterior":"GOOD","fuel":96,"interior":"GOOD","name":"BNYB240","vin":"WMEEJ3BA3CK573074"},{"address":"Green P-75 Holly St (Park highest floor possible)","coordinates":[-79.39635,43.70647,0],"engineType":"CE","exterior":"GOOD","fuel":100,"interior":"GOOD","name":"BNYB241","vin":"WMEEJ3BA3CK573379"},{"address":"Green P-146 Harrison St(E of Dovercourt Rd)","coordinates":[-79.4244,43.65042,0],"engineType":"CE","exterior":"GOOD","fuel":69,"interior":"GOOD","name":"BNYB313","vin":"WMEEJ3BA3CK573933"},{"address":"Green P-34 Hanna Ave(S of Liberty St)","coordinates":[-79.41991,43.63798,0],"engineType":"CE","exterior":"GOOD","fuel":24,"interior":"GOOD","name":"BNYB322","vin":"WMEEJ3BA3CK574838"},{"address":"Green P-400 Keele St(N of Dundas)","coordinates":[-79.46504,43.66611,0],"engineType":"CE","exterior":"GOOD","fuel":69,"interior":"GOOD","name":"BNYB104","vin":"WMEEJ3BA0CK563196"},{"address":"2382 St Clair W, Enter Britannia Ave (4 car MAX)","coordinates":[-79.48084,43.66993,0],"engineType":"CE","exterior":"GOOD","fuel":100,"interior":"GOOD","name":"BNYB105","vin":"WMEEJ3BA0CK563909"},{"address":"Green P-1155 King St W(Liberty St-Lamport Stadium)","coordinates":[-79.42401,43.63786,0],"engineType":"CE","exterior":"GOOD","fuel":33,"interior":"GOOD","name":"BNYB109","vin":"WMEEJ3BA0CK568852"},{"address":"TTC Commuter lot- 139 Indian Grove (4 Cars only)","coordinates":[-79.45712,43.6558,0],"engineType":"CE","exterior":"GOOD","fuel":93,"interior":"GOOD","name":"BNYB110","vin":"WMEEJ3BA0CK568883"},{"address":"Green P-400 Keele St(N of Dundas)","coordinates":[-79.46504,43.66611,0],"engineType":"CE","exterior":"GOOD","fuel":100,"interior":"GOOD","name":"BNYB112","vin":"WMEEJ3BA0CK569189"},{"address":"Green P-803 Richmond St W(@Walnut/Stanley Terrace)","coordinates":[-79.41078,43.64455,0],"engineType":"CE","exterior":"GOOD","fuel":60,"interior":"GOOD","name":"BNYB113","vin":"WMEEJ3BA0CK570018"},{"address":"GreenP-250 Fort York Blvd (enter off Garrison Rd)","coordinates":[-79.40552,43.63836,0],"engineType":"CE","exterior":"GOOD","fuel":100,"interior":"UNACCEPTABLE","name":"BNYB114","vin":"WMEEJ3BA0CK570486"},{"address":"Green P-341 Oakwood Ave(enter at Holland Park Ave)","coordinates":[-79.43819,43.68648,0],"engineType":"CE","exterior":"GOOD","fuel":87,"interior":"GOOD","name":"BNYB115","vin":"WMEEJ3BA0CK570634"},{"address":"Green P-51 Aberdeen Ave(2 CARS MAX)","coordinates":[-79.36878,43.66467,0],"engineType":"CE","exterior":"GOOD","fuel":100,"interior":"GOOD","name":"BNYB116","vin":"WMEEJ3BA0CK570651"},{"address":"Green P-15 Wellesley St. E.(East of Yonge)","coordinates":[-79.38359,43.66484,0],"engineType":"CE","exterior":"UNACCEPTABLE","fuel":60,"interior":"GOOD","name":"BNYB118","vin":"WMEEJ3BA0CK572979"},{"address":"Green P-1439 Danforth Ave(Entrance on Parkmount)","coordinates":[-79.32629,43.68253,0],"engineType":"CE","exterior":"GOOD","fuel":48,"interior":"GOOD","name":"BNYB119","vin":"WMEEJ3BA0CK573002"},{"address":"Green P-453 Spadina Rd(N of Lonsdale)","coordinates":[-79.41295,43.68954,0],"engineType":"CE","exterior":"GOOD","fuel":72,"interior":"GOOD","name":"BNYB120","vin":"WMEEJ3BA0CK573209"},{"address":"Green P-9 Bedford Rd(Surface portion ONLY)","coordinates":[-79.39748,43.66866,0],"engineType":"CE","exterior":"GOOD","fuel":72,"interior":"GOOD","name":"BNYB121","vin":"WMEEJ3BA0CK573422"},{"address":"Green P-376 Clinton St(N of Bloor St W)","coordinates":[-79.41758,43.66444,0],"engineType":"CE","exterior":"GOOD","fuel":96,"interior":"GOOD","name":"BNYB045","vin":"WMEEJ3BA0CK573534"},{"address":"Green P-333 Eglinton Ave W(Entrance on Braemar )","coordinates":[-79.409,43.70415,0],"engineType":"CE","exterior":"GOOD","fuel":100,"interior":"GOOD","name":"BNYB081","vin":"WMEEJ3BA0CK574425"},{"address":"Green P-136 Broadview (off Thompson St)","coordinates":[-79.35038,43.6598,0],"engineType":"CE","exterior":"GOOD","fuel":100,"interior":"GOOD","name":"BNYB080","vin":"WMEEJ3BA0CK574506"},{"address":"Green P-2053 Dufferin St(N of Rogers Rd)","coordinates":[-79.44638,43.6866,0],"engineType":"CE","exterior":"UNACCEPTABLE","fuel":100,"interior":"GOOD","name":"BNYB079","vin":"WMEEJ3BA0CK574943"},{"address":"Green P-1503 Bayview Ave (South of Millwood Rd)","coordinates":[-79.37411,43.7039,0],"engineType":"CE","exterior":"GOOD","fuel":78,"interior":"GOOD","name":"BNYB078","vin":"WMEEJ3BA0CK574988"},{"address":"Charles St E 52, M4Y Toronto","coordinates":[-79.38366,43.66919,0],"engineType":"CE","exterior":"GOOD","fuel":90,"interior":"GOOD","name":"BNYB077","vin":"WMEEJ3BA0CK575235"},{"address":"Green P-1117 Dundas St W (Behind CIBC bank)","coordinates":[-79.42014,43.64927,0],"engineType":"CE","exterior":"GOOD","fuel":100,"interior":"GOOD","name":"BNYB076","vin":"WMEEJ3BA0CK575798"},{"address":"Green P-121 St Patrick St(ALT ENTR. on Simco St)","coordinates":[-79.38936,43.65369,0],"engineType":"CE","exterior":"GOOD","fuel":30,"interior":"GOOD","name":"BNYB075","vin":"WMEEJ3BA1CK563370"},{"address":"Green P-9 Bonar Pl(N of College, W of Dufferin)","coordinates":[-79.43367,43.65277,0],"engineType":"CE","exterior":"GOOD","fuel":42,"interior":"GOOD","name":"BNYB074","vin":"WMEEJ3BA1CK567743"},{"address":"Green P-405 Sherbourne Ave(N of Carlton)","coordinates":[-79.3735,43.66452,0],"engineType":"CE","exterior":"GOOD","fuel":93,"interior":"GOOD","name":"BNYB098","vin":"WMEEJ3BA1CK567970"},{"address":"Green P-333 Eglinton Ave W(Entrance on Braemar )","coordinates":[-79.409,43.70415,0],"engineType":"CE","exterior":"GOOD","fuel":100,"interior":"GOOD","name":"BNYB097","vin":"WMEEJ3BA1CK569346"},{"address":"Castle Frank Cres 99, M4W Toronto","coordinates":[-79.36519,43.67383,0],"engineType":"CE","exterior":"GOOD","fuel":45,"interior":"GOOD","name":"BNYB096","vin":"WMEEJ3BA1CK569380"},{"address":"TargetPark-731 College St W (METRO, 3 spots)","coordinates":[-79.41936,43.65463,0],"engineType":"CE","exterior":"GOOD","fuel":57,"interior":"GOOD","name":"BNYB094","vin":"WMEEJ3BA1CK569685"},{"address":"Green P-301 Scott Rd(S of Eglinton Ave)","coordinates":[-79.47238,43.69034,0],"engineType":"CE","exterior":"GOOD","fuel":100,"interior":"GOOD","name":"BNYB092","vin":"WMEEJ3BA1CK569878"},{"address":"Explace (TEMP June 6 - Sept 9)","coordinates":[-79.42319,43.63313,0],"engineType":"CE","exterior":"GOOD","fuel":100,"interior":"GOOD","name":"BNYB090","vin":"WMEEJ3BA1CK570299"},{"address":"Green P-25 Dundas St E(Enter Victoria, prk bottom)","coordinates":[-79.37993,43.656,0],"engineType":"CE","exterior":"GOOD","fuel":42,"interior":"GOOD","name":"BNYB089","vin":"WMEEJ3BA1CK570688"},{"address":"McCaul St 223, M5T Toronto","coordinates":[-79.39216,43.65729,0],"engineType":"CE","exterior":"GOOD","fuel":100,"interior":"GOOD","name":"BNYB086","vin":"WMEEJ3BA1CK572957"},{"address":"Green P-4 Spadina Rd(N of Bloor St W)","coordinates":[-79.40412,43.66688,0],"engineType":"CE","exterior":"GOOD","fuel":54,"interior":"GOOD","name":"BNYB085","vin":"WMEEJ3BA1CK573395"},{"address":"Green P-4 Spadina Rd(N of Bloor St W)","coordinates":[-79.40412,43.66688,0],"engineType":"CE","exterior":"GOOD","fuel":100,"interior":"GOOD","name":"BNYB084","vin":"WMEEJ3BA1CK573834"},{"address":"Green P-1439 Danforth Ave(Entrance on Parkmount)","coordinates":[-79.32629,43.68253,0],"engineType":"CE","exterior":"GOOD","fuel":48,"interior":"GOOD","name":"BNYB083","vin":"WMEEJ3BA1CK574157"},{"address":"Green P-9 Bonar Pl(N of College, W of Dufferin)","coordinates":[-79.43367,43.65277,0],"engineType":"CE","exterior":"GOOD","fuel":24,"interior":"GOOD","name":"BNYB193","vin":"WMEEJ3BA1CK574191"},{"address":"Green P-51 Aberdeen Ave(2 CARS MAX)","coordinates":[-79.36878,43.66467,0],"engineType":"CE","exterior":"UNACCEPTABLE","fuel":69,"interior":"GOOD","name":"BNYB190","vin":"WMEEJ3BA1CK574918"},{"address":"Green P-365 Lippinccott Ave(South of Bloor St W)","coordinates":[-79.40966,43.66505,0],"engineType":"CE","exterior":"GOOD","fuel":100,"interior":"GOOD","name":"BNYB189","vin":"WMEEJ3BA1CK575650"},{"address":"Green P-25 Dundas St E(Enter Victoria, prk bottom)","coordinates":[-79.37993,43.656,0],"engineType":"CE","exterior":"GOOD","fuel":51,"interior":"GOOD","name":"BNYB372","vin":"WMEEJ3BA3CK569655"},{"address":"Yorkville Ave 94, M5R Toronto","coordinates":[-79.392,43.67103,0],"engineType":"CE","exterior":"GOOD","fuel":33,"interior":"GOOD","name":"BPNM977","vin":"WMEEJ3BA1DK619177"},{"address":"Green P-250 Manning Ave","coordinates":[-79.41139,43.65164,0],"engineType":"CE","exterior":"GOOD","fuel":78,"interior":"GOOD","name":"BPNM948","vin":"WMEEJ3BA9DK622473"},{"address":"Green P-333 Eglinton Ave W(Entrance on Braemar )","coordinates":[-79.409,43.70415,0],"engineType":"CE","exterior":"GOOD","fuel":100,"interior":"GOOD","name":"BPNM966","vin":"WMEEJ3BA8DK621668"},{"address":"Green P-74 Clinton St (UNDERGROUND)","coordinates":[-79.41418,43.6557,0],"engineType":"CE","exterior":"GOOD","fuel":36,"interior":"GOOD","name":"BPNM924","vin":"WMEEJ3BAXDK621526"},{"address":"Green P-745 Ossington Ave(N of Bloor St)","coordinates":[-79.42565,43.66243,0],"engineType":"CE","exterior":"GOOD","fuel":48,"interior":"GOOD","name":"BPNM950","vin":"WMEEJ3BA3DK621738"},{"address":"Green P-265 Willard Ave(N of Bloor St)","coordinates":[-79.48177,43.65043,0],"engineType":"CE","exterior":"UNACCEPTABLE","fuel":33,"interior":"GOOD","name":"BPNM978","vin":"WMEEJ3BA1DK619941"},{"address":"Green P-400 Keele St(N of Dundas)","coordinates":[-79.46504,43.66611,0],"engineType":"CE","exterior":"GOOD","fuel":100,"interior":"GOOD","name":"BPNM925","vin":"WMEEJ3BA1DK620815"},{"address":"Green P-74 Clinton St (UNDERGROUND)","coordinates":[-79.41418,43.6557,0],"engineType":"CE","exterior":"GOOD","fuel":75,"interior":"GOOD","name":"BPNM934","vin":"WMEEJ3BA3DK619424"},{"address":"Green P-803 Richmond St W(@Walnut/Stanley Terrace)","coordinates":[-79.41078,43.64455,0],"engineType":"CE","exterior":"GOOD","fuel":78,"interior":"GOOD","name":"BPNM971","vin":"WMEEJ3BA9DK621095"},{"address":"Green P-10 York St(S of Bremmer)","coordinates":[-79.381,43.64113,0],"engineType":"CE","exterior":"GOOD","fuel":84,"interior":"GOOD","name":"BPNM928","vin":"WMEEJ3BA2DK618605"},{"address":"Green P-1141 Eastern Ave (Woodbine Park)","coordinates":[-79.31446,43.66575,0],"engineType":"CE","exterior":"GOOD","fuel":60,"interior":"GOOD","name":"BPNM985","vin":"WMEEJ3BA0DK619977"},{"address":"Green P-74 Clinton St (UNDERGROUND)","coordinates":[-79.41418,43.6557,0],"engineType":"CE","exterior":"GOOD","fuel":69,"interior":"GOOD","name":"BPNM981","vin":"WMEEJ3BA0DK618876"},{"address":"Green P-17 Hammersmith Ave(N of Queen St E)","coordinates":[-79.29445,43.6716,0],"engineType":"CE","exterior":"GOOD","fuel":72,"interior":"GOOD","name":"BPNM988","vin":"WMEEJ3BA4DK622574"},{"address":"Green P-74 Clinton St (UNDERGROUND)","coordinates":[-79.41418,43.6557,0],"engineType":"CE","exterior":"GOOD","fuel":93,"interior":"GOOD","name":"BPNM974","vin":"WMEEJ3BA0DK621471"},{"address":"Green P-72 Amroth Ave(South of Danforth)","coordinates":[-79.31171,43.68538,0],"engineType":"CE","exterior":"GOOD","fuel":60,"interior":"GOOD","name":"BPNM952","vin":"WMEEJ3BA4DK619223"},{"address":"2382 St Clair W, Enter Britannia Ave (4 car MAX)","coordinates":[-79.48084,43.66993,0],"engineType":"CE","exterior":"GOOD","fuel":93,"interior":"GOOD","name":"BPNM962","vin":"WMEEJ3BA8DK619449"},{"address":"Green P-20 Charles St (Please Park on roof)","coordinates":[-79.38509,43.669,0],"engineType":"CE","exterior":"GOOD","fuel":21,"interior":"GOOD","name":"BPNM921","vin":"WMEEJ3BA9DK622022"},{"address":"UofT-443 Anatomy Dr(2 cars only,stay inside lines)","coordinates":[-79.3934,43.66153,0],"engineType":"CE","exterior":"GOOD","fuel":42,"interior":"GOOD","name":"BPNM922","vin":"WMEEJ3BAXDK621249"},{"address":"Green P-10 York St(S of Bremmer)","coordinates":[-79.381,43.64113,0],"engineType":"CE","exterior":"GOOD","fuel":57,"interior":"GOOD","name":"BPNM987","vin":"WMEEJ3BA4DK621506"},{"address":"Green P-709 Millwood Rd(E of Bayview)","coordinates":[-79.37405,43.70418,0],"engineType":"CE","exterior":"GOOD","fuel":54,"interior":"GOOD","name":"BPNM956","vin":"WMEEJ3BA7DK621693"},{"address":"Green P-20 Charles St (Please Park on roof)","coordinates":[-79.38509,43.669,0],"engineType":"CE","exterior":"GOOD","fuel":66,"interior":"GOOD","name":"BPNM980","vin":"WMEEJ3BA6DK621927"},{"address":"Green P-14 Arundel Ave(N of Danforth)","coordinates":[-79.35122,43.67846,0],"engineType":"CE","exterior":"GOOD","fuel":54,"interior":"GOOD","name":"BPNM926","vin":"WMEEJ3BA1DK621723"},{"address":"Green P-1503 Bayview Ave (South of Millwood Rd)","coordinates":[-79.37411,43.7039,0],"engineType":"CE","exterior":"GOOD","fuel":69,"interior":"GOOD","name":"BPNM960","vin":"WMEEJ3BA8DK619323"},{"address":"Green P-72 Amroth Ave(South of Danforth)","coordinates":[-79.31171,43.68538,0],"engineType":"CE","exterior":"GOOD","fuel":45,"interior":"GOOD","name":"BPNM993","vin":"WMEEJ3BA4DK620825"},{"address":"Green P-110 Dovercourt Rd (Alley behind Starbucks)","coordinates":[-79.42276,43.64384,0],"engineType":"CE","exterior":"GOOD","fuel":72,"interior":"GOOD","name":"BPNM957","vin":"WMEEJ3BA7DK621967"},{"address":"Green P-803 Richmond St W(@Walnut/Stanley Terrace)","coordinates":[-79.41078,43.64455,0],"engineType":"CE","exterior":"GOOD","fuel":100,"interior":"GOOD","name":"BPNM986","vin":"WMEEJ3BA0DK620725"},{"address":"Green P-265 Armadale Ave(N of Bloor St W)","coordinates":[-79.48304,43.65028,0],"engineType":"CE","exterior":"UNACCEPTABLE","fuel":90,"interior":"GOOD","name":"BPNM937","vin":"WMEEJ3BA3DK620041"},{"address":"TargetPark-1668 Queen St W(3 Spots)","coordinates":[-79.44419,43.63933,0],"engineType":"CE","exterior":"GOOD","fuel":87,"interior":"GOOD","name":"BPNM959","vin":"WMEEJ3BA8DK619242"},{"address":"Green P-2201 Dundas St W(E of Roncesvalles Ave)","coordinates":[-79.45117,43.65337,0],"engineType":"CE","exterior":"GOOD","fuel":48,"interior":"GOOD","name":"BPNM975","vin":"WMEEJ3BA0DK621728"},{"address":"Green P-9 Bonar Pl(N of College, W of Dufferin)","coordinates":[-79.43367,43.65277,0],"engineType":"CE","exterior":"GOOD","fuel":51,"interior":"GOOD","name":"BPNM961","vin":"WMEEJ3BA8DK619399"},{"address":"Green P-653 Gerrard St E(W of Boulton Ave)","coordinates":[-79.3502,43.66578,0],"engineType":"CE","exterior":"GOOD","fuel":42,"interior":"UNACCEPTABLE","name":"BPNM954","vin":"WMEEJ3BA7DK619524"},{"address":"UofT-443 Anatomy Dr(2 cars only,stay inside lines)","coordinates":[-79.3934,43.66153,0],"engineType":"CE","exterior":"GOOD","fuel":63,"interior":"GOOD","name":"BPNM982","vin":"WMEEJ3BA0DK619459"},{"address":"Green P-1155 King St W(Liberty St-Lamport Stadium)","coordinates":[-79.42401,43.63786,0],"engineType":"CE","exterior":"GOOD","fuel":78,"interior":"GOOD","name":"BPNM955","vin":"WMEEJ3BA7DK621516"},{"address":"Green P-141 Greenlaw Ave(S of St Clair  Ave W)","coordinates":[-79.44774,43.6762,0],"engineType":"CE","exterior":"GOOD","fuel":87,"interior":"GOOD","name":"BPNM935","vin":"WMEEJ3BA3DK619486"},{"address":"Green P-803 Richmond St W(@Walnut/Stanley Terrace)","coordinates":[-79.41078,43.64455,0],"engineType":"CE","exterior":"GOOD","fuel":48,"interior":"GOOD","name":"BPNM930","vin":"WMEEJ3BA2DK619348"},{"address":"Green P-37 Queen St E(Parkade, Pls Prk Roof/ P6)","coordinates":[-79.37722,43.6527,0],"engineType":"CE","exterior":"GOOD","fuel":100,"interior":"GOOD","name":"BPNM927","vin":"WMEEJ3BA1DK621947"},{"address":"Green P-20 Charles St (Please Park on roof)","coordinates":[-79.38509,43.669,0],"engineType":"CE","exterior":"GOOD","fuel":69,"interior":"GOOD","name":"BPNM958","vin":"WMEEJ3BA8DK618821"},{"address":"Green P-74 Clinton St (UNDERGROUND)","coordinates":[-79.41418,43.6557,0],"engineType":"CE","exterior":"GOOD","fuel":100,"interior":"GOOD","name":"BPNM989","vin":"WMEEJ3BA5DK619280"},{"address":"Green P-197 Blantyre Ave(Alt Ent. Fallingbrook)","coordinates":[-79.2815,43.68177,0],"engineType":"CE","exterior":"GOOD","fuel":57,"interior":"GOOD","name":"BPNM941","vin":"WMEEJ3BA6DK619434"},{"address":"Green P-1155 King St W(Liberty St-Lamport Stadium)","coordinates":[-79.42401,43.63786,0],"engineType":"CE","exterior":"GOOD","fuel":100,"interior":"GOOD","name":"BPNM976","vin":"WMEEJ3BA1DK618871"},{"address":"Danforth Ave 1620, M4C Toronto","coordinates":[-79.3226,43.68355,0],"engineType":"CE","exterior":"GOOD","fuel":100,"interior":"GOOD","name":"BPNM942","vin":"WMEEJ3BA6DK619479"},{"address":"Green P-51 Aberdeen Ave(2 CARS MAX)","coordinates":[-79.36878,43.66467,0],"engineType":"CE","exterior":"GOOD","fuel":81,"interior":"GOOD","name":"BPNM929","vin":"WMEEJ3BA2DK619172"},{"address":"2382 St Clair W, Enter Britannia Ave (4 car MAX)","coordinates":[-79.48084,43.66993,0],"engineType":"CE","exterior":"GOOD","fuel":100,"interior":"GOOD","name":"BPNM967","vin":"WMEEJ3BA8DK622027"},{"address":"Princes' Blvd 113, M6K Toronto","coordinates":[-79.41332,43.63341,0],"engineType":"CE","exterior":"GOOD","fuel":42,"interior":"GOOD","name":"BPNM983","vin":"WMEEJ3BA0DK619509"},{"address":"Green P-55 Mill St(enter at Parliament, S of Mill)","coordinates":[-79.36169,43.64955,0],"engineType":"CE","exterior":"GOOD","fuel":45,"interior":"GOOD","name":"BPNM932","vin":"WMEEJ3BA2DK621388"},{"address":"Green P-2201 Dundas St W(E of Roncesvalles Ave)","coordinates":[-79.45117,43.65337,0],"engineType":"CE","exterior":"GOOD","fuel":81,"interior":"GOOD","name":"BPNM931","vin":"WMEEJ3BA2DK621133"},{"address":"Green P-40 York St (Underground, 2 entrances)","coordinates":[-79.38339,43.6453,0],"engineType":"CE","exterior":"GOOD","fuel":100,"interior":"GOOD","name":"BPNM995","vin":"WMEEJ3BA6DK619269"},{"address":"Green P-11 Kenwood Ave(N side of St Clair Ave W)","coordinates":[-79.42186,43.683,0],"engineType":"CE","exterior":"GOOD","fuel":36,"interior":"GOOD","name":"BPNM936","vin":"WMEEJ3BA3DK619732"},{"address":"Green P-365 Lippinccott Ave(South of Bloor St W)","coordinates":[-79.40966,43.66505,0],"engineType":"CE","exterior":"GOOD","fuel":42,"interior":"GOOD","name":"BPNM951","vin":"WMEEJ3BA3DK621982"},{"address":"Green P-2053 Dufferin St(N of Rogers Rd)","coordinates":[-79.44638,43.6866,0],"engineType":"CE","exterior":"GOOD","fuel":100,"interior":"GOOD","name":"BPNM964","vin":"WMEEJ3BA8DK620830"},{"address":"Green P-2054 Dufferin St(S of Eversfield Rd)","coordinates":[-79.44681,43.68661,0],"engineType":"CE","exterior":"GOOD","fuel":100,"interior":"GOOD","name":"BPNM923","vin":"WMEEJ3BAXDK621347"},{"address":"Green P-15 Price St( E of Yonge)","coordinates":[-79.39001,43.67981,0],"engineType":"CE","exterior":"GOOD","fuel":54,"interior":"GOOD","name":"BPNM973","vin":"WMEEJ3BA0DK621423"},{"address":"Green P-406 Oakwood Ave(S of Hanson Rd)","coordinates":[-79.43932,43.68807,0],"engineType":"CE","exterior":"GOOD","fuel":51,"interior":"GOOD","name":"BPNM944","vin":"WMEEJ3BA6DK621586"},{"address":"Green P-1A Church St(Entrance South Market St)","coordinates":[-79.37149,43.64783,0],"engineType":"CE","exterior":"GOOD","fuel":100,"interior":"GOOD","name":"BPNM963","vin":"WMEEJ3BA8DK619967"},{"address":"GreenP-1169 Weston RD (ALT entr off Locust)","coordinates":[-79.4903,43.68744,0],"engineType":"CE","exterior":"GOOD","fuel":39,"interior":"GOOD","name":"BPNM938","vin":"WMEEJ3BA3DK620699"},{"address":"Green P-34 Hanna Ave(S of Liberty St)","coordinates":[-79.41991,43.63798,0],"engineType":"CE","exterior":"GOOD","fuel":66,"interior":"GOOD","name":"BPNM984","vin":"WMEEJ3BA0DK619722"},{"address":"Green P-18 Ossington Ave (N of Queen)","coordinates":[-79.41929,43.64466,0],"engineType":"CE","exterior":"GOOD","fuel":100,"interior":"GOOD","name":"BPNM945","vin":"WMEEJ3BA6DK621653"},{"address":"TargetPark-1668 Queen St W(3 Spots)","coordinates":[-79.44419,43.63933,0],"engineType":"CE","exterior":"GOOD","fuel":57,"interior":"GOOD","name":"BPNM947","vin":"WMEEJ3BA9DK622425"},{"address":"Green P-302 Queen St W (W of Soho St)","coordinates":[-79.3939,43.64967,0],"engineType":"CE","exterior":"GOOD","fuel":63,"interior":"GOOD","name":"BPNM969","vin":"WMEEJ3BA9DK619492"},{"address":"Green P-10 York St(S of Bremmer)","coordinates":[-79.381,43.64113,0],"engineType":"CE","exterior":"GOOD","fuel":39,"interior":"GOOD","name":"BPNM972","vin":"WMEEJ3BA9DK621713"},{"address":"Green P-31 Langford Avenue(N of Danforth)","coordinates":[-79.34075,43.68061,0],"engineType":"CE","exterior":"GOOD","fuel":63,"interior":"GOOD","name":"BPNM968","vin":"WMEEJ3BA8DK622061"},{"address":"Explace (TEMP June 6 - Sept 9)","coordinates":[-79.42319,43.63313,0],"engineType":"CE","exterior":"GOOD","fuel":100,"interior":"GOOD","name":"BPNM979","vin":"WMEEJ3BA1DK620653"},{"address":"Green P-4 Spadina Rd(N of Bloor St W)","coordinates":[-79.40412,43.66688,0],"engineType":"CE","exterior":"GOOD","fuel":42,"interior":"GOOD","name":"BPNM933","vin":"WMEEJ3BA2DK621648"},{"address":"Green P-15 Wellesley St. E.(East of Yonge)","coordinates":[-79.38359,43.66484,0],"engineType":"CE","exterior":"GOOD","fuel":54,"interior":"GOOD","name":"BPNM949","vin":"WMEEJ3BAXDK621932"},{"address":"Green P-301 Scott Rd(S of Eglinton Ave)","coordinates":[-79.47238,43.69034,0],"engineType":"CE","exterior":"GOOD","fuel":87,"interior":"GOOD","name":"BPXL706","vin":"WMEEJ3BA4DK642954"},{"address":"Green P-91 Via Italia (Park on ROOF)","coordinates":[-79.44503,43.67689,0],"engineType":"CE","exterior":"GOOD","fuel":66,"interior":"GOOD","name":"BPXL710","vin":"WMEEJ3BA5DK642011"},{"address":"Green P-4 Spadina Rd(N of Bloor St W)","coordinates":[-79.40412,43.66688,0],"engineType":"CE","exterior":"GOOD","fuel":90,"interior":"GOOD","name":"BPXL733","vin":"WMEEJ3BA0DK641011"},{"address":"Green P-34 Hanna Ave(S of Liberty St)","coordinates":[-79.41991,43.63798,0],"engineType":"CE","exterior":"GOOD","fuel":48,"interior":"GOOD","name":"BPXL742","vin":"WMEEJ3BA1DK641891"},{"address":"Green P-197 Blantyre Ave(Alt Ent. Fallingbrook)","coordinates":[-79.2815,43.68177,0],"engineType":"CE","exterior":"GOOD","fuel":66,"interior":"GOOD","name":"BPXL743","vin":"WMEEJ3BA1DK641924"},{"address":"Green P-75 Holly St (Park highest floor possible)","coordinates":[-79.39635,43.70647,0],"engineType":"CE","exterior":"GOOD","fuel":42,"interior":"GOOD","name":"BPXL747","vin":"WMEEJ3BA1DK644029"},{"address":"Green P-7 Bartlett Ave(N of Bloor St)","coordinates":[-79.4325,43.66097,0],"engineType":"CE","exterior":"GOOD","fuel":75,"interior":"GOOD","name":"BPXL741","vin":"WMEEJ3BA1DK641714"},{"address":"Green P-1695 Dufferin St(Entrance on Westmount)","coordinates":[-79.44236,43.67864,0],"engineType":"CE","exterior":"GOOD","fuel":72,"interior":"GOOD","name":"BPXL737","vin":"WMEEJ3BA0DK642935"},{"address":"Green P-136 Broadview (off Thompson St)","coordinates":[-79.35038,43.6598,0],"engineType":"CE","exterior":"UNACCEPTABLE","fuel":27,"interior":"UNACCEPTABLE","name":"BPXL721","vin":"WMEEJ3BA6DK644205"},{"address":"Green P-2700 Eglinton Ave W(enter off Municpal Dr)","coordinates":[-79.47776,43.69034,0],"engineType":"CE","exterior":"GOOD","fuel":100,"interior":"GOOD","name":"BPXL703","vin":"WMEEJ3BA3DK644016"},{"address":"Green P-803 Richmond St W(@Walnut/Stanley Terrace)","coordinates":[-79.41078,43.64455,0],"engineType":"CE","exterior":"GOOD","fuel":100,"interior":"GOOD","name":"BPXL719","vin":"WMEEJ3BA6DK643779"},{"address":"Green P-4 Spadina Rd(N of Bloor St W)","coordinates":[-79.40412,43.66688,0],"engineType":"CE","exterior":"GOOD","fuel":48,"interior":"GOOD","name":"BPXL705","vin":"WMEEJ3BA4DK642789"},{"address":"Green P-385 Pacific Ave(S of Dundas| 2 entrances)","coordinates":[-79.4677,43.66495,0],"engineType":"CE","exterior":"GOOD","fuel":100,"interior":"GOOD","name":"BPXL712","vin":"WMEEJ3BA5DK642655"},{"address":"GreenP-1169 Weston RD (ALT entr off Locust)","coordinates":[-79.4903,43.68744,0],"engineType":"CE","exterior":"GOOD","fuel":69,"interior":"GOOD","name":"BPXL738","vin":"WMEEJ3BA0DK643051"},{"address":"Green P-745 Ossington Ave(N of Bloor St)","coordinates":[-79.42565,43.66243,0],"engineType":"CE","exterior":"GOOD","fuel":39,"interior":"GOOD","name":"BPXL713","vin":"WMEEJ3BA5DK643398"},{"address":"Green P-2201 Dundas St W(E of Roncesvalles Ave)","coordinates":[-79.45117,43.65337,0],"engineType":"CE","exterior":"GOOD","fuel":100,"interior":"GOOD","name":"BPXL744","vin":"WMEEJ3BA1DK642636"},{"address":"Green P-1325 Queen St W(W of Dufferin St)","coordinates":[-79.43386,43.64095,0],"engineType":"CE","exterior":"GOOD","fuel":42,"interior":"GOOD","name":"BPXL734","vin":"WMEEJ3BA0DK642076"},{"address":"Green P-9 Salem Ave(N of Bloor St)","coordinates":[-79.43167,43.66101,0],"engineType":"CE","exterior":"GOOD","fuel":100,"interior":"GOOD","name":"BPXL729","vin":"WMEEJ3BA9DK643498"},{"address":"Green P-1 Shortt St (Off Eglinton, W of Dufferin)","coordinates":[-79.4518,43.69595,0],"engineType":"CE","exterior":"GOOD","fuel":100,"interior":"GOOD","name":"BPXL731","vin":"WMEEJ3BAXDK642778"},{"address":"Green P-1155 King St W(Liberty St-Lamport Stadium)","coordinates":[-79.42401,43.63786,0],"engineType":"CE","exterior":"GOOD","fuel":27,"interior":"GOOD","name":"BPXL722","vin":"WMEEJ3BA7DK644200"},{"address":"Green P-803 Richmond St W(@Walnut/Stanley Terrace)","coordinates":[-79.41078,43.64455,0],"engineType":"CE","exterior":"GOOD","fuel":100,"interior":"GOOD","name":"BPXL740","vin":"WMEEJ3BA0DK644300"},{"address":"Green P-15 Wellesley St. E.(East of Yonge)","coordinates":[-79.38359,43.66484,0],"engineType":"CE","exterior":"GOOD","fuel":39,"interior":"GOOD","name":"BPXL717","vin":"WMEEJ3BA6DK642485"},{"address":"Green P-2053 Dufferin St(N of Rogers Rd)","coordinates":[-79.44638,43.6866,0],"engineType":"CE","exterior":"GOOD","fuel":100,"interior":"GOOD","name":"BPXL739","vin":"WMEEJ3BA0DK644121"},{"address":"Green P-2201 Dundas St W(E of Roncesvalles Ave)","coordinates":[-79.45117,43.65337,0],"engineType":"CE","exterior":"GOOD","fuel":81,"interior":"GOOD","name":"BPXL736","vin":"WMEEJ3BA0DK642448"},{"address":"Green P-2053 Dufferin St(N of Rogers Rd)","coordinates":[-79.44638,43.6866,0],"engineType":"CE","exterior":"GOOD","fuel":63,"interior":"GOOD","name":"BPXL750","vin":"WMEEJ3BA3DK641634"},{"address":"Green P-1119 Queen St W( at Abell St)","coordinates":[-79.42421,43.64295,0],"engineType":"CE","exterior":"GOOD","fuel":54,"interior":"GOOD","name":"BPXL720","vin":"WMEEJ3BA6DK643975"},{"address":"TargetPark-731 College St W (METRO, 3 spots)","coordinates":[-79.41936,43.65463,0],"engineType":"CE","exterior":"GOOD","fuel":100,"interior":"GOOD","name":"BPXL732","vin":"WMEEJ3BAXDK642828"},{"address":"Green P-37 Queen St E(Parkade, Pls Prk Roof/ P6)","coordinates":[-79.37722,43.6527,0],"engineType":"CE","exterior":"GOOD","fuel":51,"interior":"GOOD","name":"BPXL707","vin":"WMEEJ3BA4DK643795"},{"address":"Green P-197 Blantyre Ave(Alt Ent. Fallingbrook)","coordinates":[-79.2815,43.68177,0],"engineType":"CE","exterior":"GOOD","fuel":100,"interior":"GOOD","name":"BPXL749","vin":"WMEEJ3BA2DK644248"},{"address":"Green P-406 Oakwood Ave(S of Hanson Rd)","coordinates":[-79.43932,43.68807,0],"engineType":"CE","exterior":"GOOD","fuel":100,"interior":"GOOD","name":"BPXL711","vin":"WMEEJ3BA5DK642154"},{"address":"Green P-803 Richmond St W(@Walnut/Stanley Terrace)","coordinates":[-79.41078,43.64455,0],"engineType":"CE","exterior":"GOOD","fuel":100,"interior":"GOOD","name":"BPXL704","vin":"WMEEJ3BA4DK642615"},{"address":"Green P-1 Shortt St (Off Eglinton, W of Dufferin)","coordinates":[-79.4518,43.69595,0],"engineType":"CE","exterior":"GOOD","fuel":69,"interior":"GOOD","name":"BPXL730","vin":"WMEEJ3BAXDK642036"},{"address":"TargetPark-550 Richmond St W(Enter on Adelaide)","coordinates":[-79.40211,43.64552,0],"engineType":"CE","exterior":"GOOD","fuel":57,"interior":"GOOD","name":"BPXL724","vin":"WMEEJ3BA8DK643010"},{"address":"Green P-40 York St (Underground, 2 entrances)","coordinates":[-79.38339,43.6453,0],"engineType":"CE","exterior":"GOOD","fuel":42,"interior":"GOOD","name":"BPXL718","vin":"WMEEJ3BA6DK643233"},{"address":"Green P-385 Pacific Ave(S of Dundas| 2 entrances)","coordinates":[-79.4677,43.66495,0],"engineType":"CE","exterior":"GOOD","fuel":87,"interior":"GOOD","name":"BPXL723","vin":"WMEEJ3BA8DK642195"},{"address":"Green P-351 Keele Street(South of Dundas)","coordinates":[-79.46368,43.66481,0],"engineType":"CE","exterior":"GOOD","fuel":60,"interior":"GOOD","name":"BPXL702","vin":"WMEEJ3BA3DK643058"},{"address":"Green P-550 Mortimer Ave(W of Coxwell)","coordinates":[-79.3279,43.69043,0],"engineType":"CE","exterior":"GOOD","fuel":54,"interior":"GOOD","name":"BPXL716","vin":"WMEEJ3BA6DK642454"},{"address":"Green P-141 Greenlaw Ave(S of St Clair  Ave W)","coordinates":[-79.44774,43.6762,0],"engineType":"CE","exterior":"GOOD","fuel":100,"interior":"GOOD","name":"BPXL726","vin":"WMEEJ3BA8DK643640"},{"address":"Green P-9 Bonar Pl(N of College, W of Dufferin)","coordinates":[-79.43367,43.65277,0],"engineType":"CE","exterior":"GOOD","fuel":100,"interior":"GOOD","name":"BPXL727","vin":"WMEEJ3BA9DK642139"},{"address":"Green P-1 Shortt St (Off Eglinton, W of Dufferin)","coordinates":[-79.4518,43.69595,0],"engineType":"CE","exterior":"GOOD","fuel":39,"interior":"GOOD","name":"BPXL728","vin":"WMEEJ3BA9DK642691"},{"address":"Green P-1155 King St W(Liberty St-Lamport Stadium)","coordinates":[-79.42401,43.63786,0],"engineType":"CE","exterior":"GOOD","fuel":21,"interior":"GOOD","name":"BPXL746","vin":"WMEEJ3BA1DK643897"}]}